{
  "metro_stations": [
    { "id": 1,
      "siteid": 9110,
      "sitename": "Abrahamsberg",
      "from_central_direction": 1,
      "latitude": 59.3365630909855,
      "longitude": 17.9531728536484
    },
    { "id": 2,
      "siteid": 9300,
      "sitename": "Akalla",
      "from_central_direction": 1,
      "latitude": 59.4135751526267,
      "longitude": 17.9171595033746
    },
    { "id": 3,
      "siteid": 9282,
      "sitename": "Alby",
      "from_central_direction": 2,
      "latitude": 59.2393860393184,
      "longitude": 17.8454440837609
    },
    { "id": 6,
      "siteid": 9112,
      "sitename": "Alvik",
      "from_central_direction": 1,
      "latitude": 59.3335280089945,
      "longitude": 17.9813295834273
    },
    { "id": 7,
      "siteid": 9293,
      "sitename": "Aspudden",
      "from_central_direction": 2,
      "latitude": 59.3063615665497,
      "longitude": 18.0018439972976
    },
    { "id": 8,
      "siteid": 9291,
      "sitename": "Axelsberg",
      "from_central_direction": 2,
      "latitude": 59.3043773365361,
      "longitude": 17.9755693156565
    },
    { "id": 9,
      "siteid": 9141,
      "sitename": "Bagarmossen",
      "from_central_direction": 2,
      "latitude": 59.2768259416979,
      "longitude": 18.1322049162886
    },
    { "id": 10,
      "siteid": 9163,
      "sitename": "Bandhagen",
      "from_central_direction": 2,
      "latitude": 59.270417254619,
      "longitude": 18.0496663734483
    },
    { "id": 11,
      "siteid": 9202,
      "sitename": "Bergshamra",
      "from_central_direction": 1,
      "latitude": 59.3807370943552,
      "longitude": 18.0374860876312
    },
    { "id": 14,
      "siteid": 9143,
      "sitename": "Björkhagen",
      "from_central_direction": 2,
      "latitude": 59.2916379461619,
      "longitude": 18.1153458345701
    },
    { "id": 15,
      "siteid": 9105,
      "sitename": "Blackeberg",
      "from_central_direction": 1,
      "latitude": 59.3483700573461,
      "longitude": 17.8828507976348
    },
    { "id": 16,
      "siteid": 9187,
      "sitename": "Blåsut",
      "from_central_direction": 2,
      "latitude": 59.2911845751744,
      "longitude": 18.0911610763079
    },
    { "id": 17,
      "siteid": 9289,
      "sitename": "Bredäng",
      "from_central_direction": 2,
      "latitude": 59.2948025999799,
      "longitude": 17.9360054919783
    },
    { "id": 18,
      "siteid": 9109,
      "sitename": "Brommaplan",
      "from_central_direction": 1,
      "latitude": 59.3382848826814,
      "longitude": 17.9396416118668
    },
    { "id": 19,
      "siteid": 1002,
      "sitename": "Centralen",
      "latitude": 59.3313179695028,
      "longitude": 18.0616773959365
    },
    { "id": 21,
      "siteid": 9201,
      "sitename": "Danderyds sjukhus",
      "from_central_direction": 1,
      "latitude": 59.3905058082911,
      "longitude": 18.0417548416149
    },
    { "id": 22,
      "siteid": 9324,
      "sitename": "Duvbo",
      "from_central_direction": 1,
      "latitude": 59.3680793953108,
      "longitude": 17.9630809873331
    },
    { "id": 23,
      "siteid": 9167,
      "sitename": "Enskede gård",
      "from_central_direction": 2,
      "latitude": 59.2890605223369,
      "longitude": 18.070359269782
    },
    { "id": 24,
      "siteid": 9181,
      "sitename": "Farsta",
      "from_central_direction": 2,
      "latitude": 59.2448136772657,
      "longitude": 18.0925792576126
    },
    { "id": 25,
      "siteid": 9180,
      "sitename": "Farsta strand",
      "from_central_direction": 2,
      "latitude": 59.2355276839029,
      "longitude": 18.1012808998205
    },
    { "id": 27,
      "siteid": 9283,
      "sitename": "Fittja",
      "from_central_direction": 2,
      "latitude": 59.2474292520423,
      "longitude": 17.8610002461975
    },
    { "id": 29,
      "siteid": 9115,
      "sitename": "Fridhemsplan",
      "from_central_direction": 1,
      "latitude": 59.3329774570606,
      "longitude": 18.0314880483801
    },
    { "id": 30,
      "siteid": 9260,
      "sitename": "Fruängen",
      "from_central_direction": 2,
      "latitude": 59.2867578385717,
      "longitude": 17.9648474589468
    },
    { "id": 31,
      "siteid": 9193,
      "sitename": "Gamla stan",
      "from_central_direction": 2,
      "latitude": 59.3234014331035,
      "longitude": 18.0671617033001
    },
    { "id": 32,
      "siteid": 9168,
      "sitename": "Globen",
      "from_central_direction": 2,
      "latitude": 59.294243451714,
      "longitude": 18.078006656399
    },
    { "id": 33,
      "siteid": 9183,
      "sitename": "Gubbängen",
      "from_central_direction": 2,
      "latitude": 59.2633249972723,
      "longitude": 18.0821386289724
    },
    { "id": 36,
      "siteid": 9189,
      "sitename": "Gullmarsplan",
      "from_central_direction": 2,
      "latitude": 59.299184584465,
      "longitude": 18.080969851014
    },
    { "id": 37,
      "siteid": 9221,
      "sitename": "Gärdet",
      "from_central_direction": 1,
      "latitude": 59.3451607693221,
      "longitude": 18.0989717802474
    },
    { "id": 38,
      "siteid": 9160,
      "sitename": "Hagsätra",
      "from_central_direction": 2,
      "latitude": 59.2616540154908,
      "longitude": 18.0133647845506
    },
    { "id": 39,
      "siteid": 9303,
      "sitename": "Hallonbergen",
      "from_central_direction": 1,
      "latitude": 59.3743278170188,
      "longitude": 17.9691260920519
    },
    { "id": 40,
      "siteid": 9281,
      "sitename": "Hallunda",
      "from_central_direction": 2,
      "latitude": 59.2433285243852,
      "longitude": 17.8252597674357
    },
    { "id": 43,
      "siteid": 9144,
      "sitename": "Hammarbyhöjden",
      "from_central_direction": 2,
      "latitude": 59.2947468751046,
      "longitude": 18.1045842465346
    },
    { "id": 45,
      "siteid": 9320,
      "sitename": "Hjulsta",
      "from_central_direction": 1,
      "latitude": 59.3975010137794,
      "longitude": 17.8892901779774
    },
    { "id": 46,
      "siteid": 9295,
      "sitename": "Hornstull",
      "from_central_direction": 2,
      "latitude": 59.3159632980205,
      "longitude": 18.0355402102693
    },
    { "id": 47,
      "siteid": 9301,
      "sitename": "Husby",
      "from_central_direction": 1,
      "latitude": 59.4097176326344,
      "longitude": 17.9269066053237
    },
    { "id": 48,
      "siteid": 9327,
      "sitename": "Huvudsta",
      "from_central_direction": 1,
      "latitude": 59.3497132209047,
      "longitude": 17.9870070274309
    },
    { "id": 50,
      "siteid": 9262,
      "sitename": "Hägerstensåsen",
      "from_central_direction": 2,
      "latitude": 59.2951615223219,
      "longitude": 17.9784233065016
    },
    { "id": 51,
      "siteid": 9101,
      "sitename": "Hässelby gård",
      "from_central_direction": 1,
      "latitude": 59.3670448853005,
      "longitude": 17.8442877712687
    },
    { "id": 52,
      "siteid": 9100,
      "sitename": "Hässelby strand",
      "from_central_direction": 1,
      "latitude": 59.3617428105017,
      "longitude": 17.8324667161437
    },
    { "id": 53,
      "siteid": 9162,
      "sitename": "Högdalen",
      "from_central_direction": 2,
      "latitude": 59.2637694810849,
      "longitude": 18.0430377645113
    },
    { "id": 54,
      "siteid": 9182,
      "sitename": "Hökarängen",
      "from_central_direction": 2,
      "latitude": 59.2579307022309,
      "longitude": 18.0824977977387
    },
    { "id": 56,
      "siteid": 9119,
      "sitename": "Hötorget",
      "from_central_direction": 1,
      "latitude": 59.3356060415282,
      "longitude": 18.0629635851674
    },
    { "id": 57,
      "siteid": 9106,
      "sitename": "Islandstorget",
      "from_central_direction": 1,
      "latitude": 59.3459947012697,
      "longitude": 17.8932718445772
    },
    { "id": 58,
      "siteid": 9102,
      "sitename": "Johannelund",
      "from_central_direction": 1,
      "latitude": 59.3679232409668,
      "longitude": 17.8581326256469
    },
    { "id": 60,
      "siteid": 9222,
      "sitename": "Karlaplan",
      "from_central_direction": 1,
      "latitude": 59.3389882957986,
      "longitude": 18.0919988929416
    },
    { "id": 63,
      "siteid": 9302,
      "sitename": "Kista",
      "from_central_direction": 1,
      "latitude": 59.4029594411987,
      "longitude": 17.9426683336417
    },
    { "id": 64,
      "siteid": 9113,
      "sitename": "Kristineberg",
      "from_central_direction": 1,
      "latitude": 59.3327224102678,
      "longitude": 18.0031233049855
    },
    { "id": 66,
      "siteid": 9340,
      "sitename": "Kungsträdgården",
      "from_central_direction": 2,
      "latitude": 59.3307821796554,
      "longitude": 18.0728892526853
    },
    { "id": 67,
      "siteid": 9142,
      "sitename": "Kärrtorp",
      "from_central_direction": 2,
      "latitude": 59.2844869642383,
      "longitude": 18.1144927799517
    },
    { "id": 68,
      "siteid": 9294,
      "sitename": "Liljeholmen",
      "from_central_direction": 2,
      "latitude": 59.3107413850728,
      "longitude": 18.0231848932682
    },
    { "id": 69,
      "siteid": 9297,
      "sitename": "Mariatorget",
      "from_central_direction": 2,
      "latitude": 59.317014373907,
      "longitude": 18.0621173620111
    },
    { "id": 70,
      "siteid": 9284,
      "sitename": "Masmo",
      "from_central_direction": 2,
      "latitude": 59.2499160692218,
      "longitude": 17.8813985689491
    },
    { "id": 71,
      "siteid": 9191,
      "sitename": "Medborgarplatsen",
      "from_central_direction": 2,
      "latitude": 59.3148923778042,
      "longitude": 18.0726216304905
    },
    { "id": 72,
      "siteid": 9264,
      "sitename": "Midsommarkransen",
      "from_central_direction": 2,
      "latitude": 59.3018622871211,
      "longitude": 18.0119663033992
    },
    { "id": 74,
      "siteid": 9290,
      "sitename": "Mälarhöjden",
      "from_central_direction": 2,
      "latitude": 59.3012518260086,
      "longitude": 17.957741811607
    },
    { "id": 76,
      "siteid": 9200,
      "sitename": "Mörby centrum",
      "from_central_direction": 1,
      "latitude": 59.3983196270836,
      "longitude": 18.0364235120228
    },
    { "id": 77,
      "siteid": 9280,
      "sitename": "Norsborg",
      "from_central_direction": 2,
      "latitude": 59.2437394272553,
      "longitude": 17.8155385869142
    },
    { "id": 79,
      "siteid": 9304,
      "sitename": "Näckrosen",
      "from_central_direction": 1,
      "latitude": 59.3673205615557,
      "longitude": 17.9817335216068
    },
    { "id": 81,
      "siteid": 9117,
      "sitename": "Odenplan",
      "from_central_direction": 1,
      "latitude": 59.3427594713838,
      "longitude": 18.0486006570919
    },
    { "id": 82,
      "siteid": 9322,
      "sitename": "Rinkeby",
      "from_central_direction": 1,
      "latitude": 59.3881298077025,
      "longitude": 17.9280926120175
    },
    { "id": 84,
      "siteid": 9323,
      "sitename": "Rissne",
      "from_central_direction": 1,
      "latitude": 59.3759873132034,
      "longitude": 17.9397923648635
    },
    { "id": 85,
      "siteid": 9220,
      "sitename": "Ropsten",
      "from_central_direction": 1,
      "latitude": 59.3574988438994,
      "longitude": 18.1030754913324
    },
    { "id": 86,
      "siteid": 9104,
      "sitename": "Råcksta",
      "from_central_direction": 1,
      "latitude": 59.3545134760031,
      "longitude": 17.8816258413569
    },
    { "id": 87,
      "siteid": 9309,
      "sitename": "Rådhuset",
      "from_central_direction": 1,
      "latitude": 59.3298618228492,
      "longitude": 18.0450969466288
    },
    { "id": 88,
      "siteid": 9118,
      "sitename": "Rådmansgatan",
      "from_central_direction": 1,
      "latitude": 59.3408840007015,
      "longitude": 18.0578994257094
    },
    { "id": 89,
      "siteid": 9161,
      "sitename": "Rågsved",
      "from_central_direction": 2,
      "latitude": 59.2567278828953,
      "longitude": 18.0284423903572
    },
    { "id": 90,
      "siteid": 9186,
      "sitename": "Sandsborg",
      "from_central_direction": 2,
      "latitude": 59.2856752641236,
      "longitude": 18.0919325152121
    },
    { "id": 91,
      "siteid": 9116,
      "sitename": "Sankt Eriksplan",
      "from_central_direction": 1,
      "latitude": 59.3402934026792,
      "longitude": 18.0374161430336
    },
    { "id": 93,
      "siteid": 9190,
      "sitename": "Skanstull",
      "from_central_direction": 2,
      "latitude": 59.3084969588188,
      "longitude": 18.0758138335239
    },
    { "id": 94,
      "siteid": 9140,
      "sitename": "Skarpnäck",
      "from_central_direction": 2,
      "latitude": 59.267427306007,
      "longitude": 18.1335110441424
    },
    { "id": 96,
      "siteid": 9185,
      "sitename": "Skogskyrkogården",
      "from_central_direction": 2,
      "latitude": 59.2789670265301,
      "longitude": 18.0955186440715
    },
    { "id": 97,
      "siteid": 9287,
      "sitename": "Skärholmen",
      "from_central_direction": 2,
      "latitude": 59.2769904614008,
      "longitude": 17.9070656617613
    },
    { "id": 98,
      "siteid": 9188,
      "sitename": "Skärmarbrink",
      "from_central_direction": 2,
      "latitude": 59.2952665051917,
      "longitude": 18.0903639324155
    },
    { "id": 99,
      "siteid": 9192,
      "sitename": "Slussen",
      "from_central_direction": 2,
      "latitude": 59.3195952317958,
      "longitude": 18.071740133708
    },
    { "id": 100,
      "siteid": 9166,
      "sitename": "Sockenplan",
      "from_central_direction": 2,
      "latitude": 59.283609704603,
      "longitude": 18.0708746681109
    },
    { "id": 101,
      "siteid": 9305,
      "sitename": "Solna centrum",
      "from_central_direction": 1,
      "latitude": 59.3597729577538,
      "longitude": 17.9981001818312
    },
    { "id": 103,
      "siteid": 9326,
      "sitename": "Solna strand",
      "from_central_direction": 1,
      "latitude": 59.3543425137782,
      "longitude": 17.9737982007029
    },
    { "id": 104,
      "siteid": 9205,
      "sitename": "Stadion",
      "from_central_direction": 1,
      "latitude": 59.3408076157474,
      "longitude": 18.0819427479138
    },
    { "id": 105,
      "siteid": 9307,
      "sitename": "Stadshagen",
      "from_central_direction": 1,
      "latitude": 59.337477366128,
      "longitude": 18.015593812489
    },
    { "id": 106,
      "siteid": 9000,
      "sitename": "Stockholms central",
      "latitude": 59.3313179695028,
      "longitude": 18.0616773959365
    },
    { "id": 108,
      "siteid": 9111,
      "sitename": "Stora mossen",
      "from_central_direction": 1,
      "latitude": 59.3346646732361,
      "longitude": 17.9653558320959
    },
    { "id": 109,
      "siteid": 9164,
      "sitename": "Stureby",
      "from_central_direction": 2,
      "latitude": 59.2746253315278,
      "longitude": 18.0555927213696
    },
    { "id": 110,
      "siteid": 9325,
      "sitename": "Sundbyberg",
      "from_central_direction": 1,
      "latitude": 59.3605690848517,
      "longitude": 17.9730344872092
    },
    { "id": 111,
      "siteid": 9165,
      "sitename": "Svedmyra",
      "from_central_direction": 2,
      "latitude": 59.2780209787806,
      "longitude": 18.0679591281672
    },
    { "id": 112,
      "siteid": 9288,
      "sitename": "Sätra",
      "from_central_direction": 2,
      "latitude": 59.2850604023792,
      "longitude": 17.9210937554179
    },
    { "id": 113,
      "siteid": 9184,
      "sitename": "Tallkrogen",
      "from_central_direction": 2,
      "latitude": 59.2712662580554,
      "longitude": 18.0855632676107
    },
    { "id": 114,
      "siteid": 9001,
      "sitename": "T-Centralen",
      "latitude": 59.3313179695028,
      "longitude": 18.0616773959365
    },
    { "id": 115,
      "siteid": 9204,
      "sitename": "Tekniska högskolan",
      "from_central_direction": 1,
      "latitude": 59.3465411447573,
      "longitude": 18.0693156587543
    },
    { "id": 116,
      "siteid": 9263,
      "sitename": "Telefonplan",
      "from_central_direction": 2,
      "latitude": 59.2982482765907,
      "longitude": 17.9973180997882
    },
    { "id": 117,
      "siteid": 9321,
      "sitename": "Tensta",
      "from_central_direction": 1,
      "latitude": 59.3942868176953,
      "longitude": 17.9027198957965
    },
    { "id": 119,
      "siteid": 9114,
      "sitename": "Thorildsplan",
      "from_central_direction": 1,
      "latitude": 59.3314927232727,
      "longitude": 18.0158378154947
    },
    { "id": 122,
      "siteid": 9203,
      "sitename": "Universitetet",
      "from_central_direction": 1,
      "latitude": 59.365361017987,
      "longitude": 18.0548947967027
    },
    { "id": 123,
      "siteid": 9286,
      "sitename": "Vårberg",
      "from_central_direction": 2,
      "latitude": 59.2759430857457,
      "longitude": 17.8901054830793
    },
    { "id": 125,
      "siteid": 9285,
      "sitename": "Vårby gård",
      "from_central_direction": 2,
      "latitude": 59.2643380474581,
      "longitude": 17.8847136838613
    },
    { "id": 126,
      "siteid": 9103,
      "sitename": "Vällingby",
      "from_central_direction": 1,
      "latitude": 59.3632773225026,
      "longitude": 17.8720117901697
    },
    { "id": 127,
      "siteid": 9261,
      "sitename": "Västertorp",
      "from_central_direction": 2,
      "latitude": 59.2913516203392,
      "longitude": 17.9667006809331
    },
    { "id": 128,
      "siteid": 9306,
      "sitename": "Västra skogen",
      "from_central_direction": 1,
      "latitude": 59.3480375378972,
      "longitude": 18.0033743796139
    },
    { "id": 129,
      "siteid": 9296,
      "sitename": "Zinkensdamm",
      "from_central_direction": 2,
      "latitude": 59.3177049160947,
      "longitude": 18.0496904097639
    },
    { "id": 130,
      "siteid": 9108,
      "sitename": "Åkeshov",
      "from_central_direction": 1,
      "latitude": 59.3417679846642,
      "longitude": 17.9270450567812
    },
    { "id": 131,
      "siteid": 9107,
      "sitename": "Ängbyplan",
      "from_central_direction": 1,
      "latitude": 59.3419565156307,
      "longitude": 17.9070871163572
    },
    { "id": 132,
      "siteid": 9292,
      "sitename": "Örnsberg",
      "from_central_direction": 2,
      "latitude": 59.3054346744698,
      "longitude": 17.9891406576894
    },
    { "id": 133,
      "siteid": 9206,
      "sitename": "Östermalmstorg",
      "from_central_direction": 1,
      "latitude": 59.3349688288931,
      "longitude": 18.0763846822514
    }
  ]
}
