{
  "metro_and_train_stations": [
    {
      "siteid": 9001,
      "sitename": "T-Centralen",
      "latitude": 59.3313179695028,
      "longitude": 18.0616773959365
    },
    {
      "siteid": 9325,
      "sitename": "Sundbyberg",
      "from_central_direction": 1,
      "from_central_direction_trains": 2,
      "latitude": 59.3605690848517,
      "longitude": 17.9730344872092
    },
    {
      "siteid": 9180,
      "sitename": "Farsta strand",
      "from_central_direction": 2,
      "from_central_direction_trains": 1,
      "latitude": 59.2355276839029,
      "longitude": 18.1012808998205
    }
  ],
  "metro_stations": [
    {
      "siteid": 9110,
      "sitename": "Abrahamsberg",
      "from_central_direction": 1,
      "latitude": 59.3365630909855,
      "longitude": 17.9531728536484
    },
    {
      "siteid": 9300,
      "sitename": "Akalla",
      "from_central_direction": 1,
      "latitude": 59.4135751526267,
      "longitude": 17.9171595033746
    },
    {
      "siteid": 9282,
      "sitename": "Alby",
      "from_central_direction": 2,
      "latitude": 59.2393860393184,
      "longitude": 17.8454440837609
    },
    {
      "siteid": 9112,
      "sitename": "Alvik",
      "from_central_direction": 1,
      "latitude": 59.3335280089945,
      "longitude": 17.9813295834273
    },
    {
      "siteid": 9293,
      "sitename": "Aspudden",
      "from_central_direction": 2,
      "latitude": 59.3063615665497,
      "longitude": 18.0018439972976
    },
    {
      "siteid": 9291,
      "sitename": "Axelsberg",
      "from_central_direction": 2,
      "latitude": 59.3043773365361,
      "longitude": 17.9755693156565
    },
    {
      "siteid": 9141,
      "sitename": "Bagarmossen",
      "from_central_direction": 2,
      "latitude": 59.2768259416979,
      "longitude": 18.1322049162886
    },
    {
      "siteid": 9163,
      "sitename": "Bandhagen",
      "from_central_direction": 2,
      "latitude": 59.270417254619,
      "longitude": 18.0496663734483
    },
    {
      "siteid": 9202,
      "sitename": "Bergshamra",
      "from_central_direction": 1,
      "latitude": 59.3807370943552,
      "longitude": 18.0374860876312
    },
    {
      "siteid": 9143,
      "sitename": "Björkhagen",
      "from_central_direction": 2,
      "latitude": 59.2916379461619,
      "longitude": 18.1153458345701
    },
    {
      "siteid": 9105,
      "sitename": "Blackeberg",
      "from_central_direction": 1,
      "latitude": 59.3483700573461,
      "longitude": 17.8828507976348
    },
    {
      "siteid": 9187,
      "sitename": "Blåsut",
      "from_central_direction": 2,
      "latitude": 59.2911845751744,
      "longitude": 18.0911610763079
    },
    {
      "siteid": 9289,
      "sitename": "Bredäng",
      "from_central_direction": 2,
      "latitude": 59.2948025999799,
      "longitude": 17.9360054919783
    },
    {
      "siteid": 9109,
      "sitename": "Brommaplan",
      "from_central_direction": 1,
      "latitude": 59.3382848826814,
      "longitude": 17.9396416118668
    },
    {
      "siteid": 9201,
      "sitename": "Danderyds sjukhus",
      "from_central_direction": 1,
      "latitude": 59.3905058082911,
      "longitude": 18.0417548416149
    },
    {
      "siteid": 9324,
      "sitename": "Duvbo",
      "from_central_direction": 1,
      "latitude": 59.3680793953108,
      "longitude": 17.9630809873331
    },
    {
      "siteid": 9167,
      "sitename": "Enskede gård",
      "from_central_direction": 2,
      "latitude": 59.2890605223369,
      "longitude": 18.070359269782
    },
    {
      "siteid": 9181,
      "sitename": "Farsta",
      "from_central_direction": 2,
      "latitude": 59.2448136772657,
      "longitude": 18.0925792576126
    },
    {
      "siteid": 9283,
      "sitename": "Fittja",
      "from_central_direction": 2,
      "latitude": 59.2474292520423,
      "longitude": 17.8610002461975
    },
    {
      "siteid": 9115,
      "sitename": "Fridhemsplan",
      "from_central_direction": 1,
      "latitude": 59.3329774570606,
      "longitude": 18.0314880483801
    },
    {
      "siteid": 9260,
      "sitename": "Fruängen",
      "from_central_direction": 2,
      "latitude": 59.2867578385717,
      "longitude": 17.9648474589468
    },
    {
      "siteid": 9193,
      "sitename": "Gamla stan",
      "from_central_direction": 2,
      "latitude": 59.3234014331035,
      "longitude": 18.0671617033001
    },
    {
      "siteid": 9168,
      "sitename": "Globen",
      "from_central_direction": 2,
      "latitude": 59.294243451714,
      "longitude": 18.078006656399
    },
    {
      "siteid": 9183,
      "sitename": "Gubbängen",
      "from_central_direction": 2,
      "latitude": 59.2633249972723,
      "longitude": 18.0821386289724
    },
    {
      "siteid": 9189,
      "sitename": "Gullmarsplan",
      "from_central_direction": 2,
      "latitude": 59.299184584465,
      "longitude": 18.080969851014
    },
    {
      "siteid": 9221,
      "sitename": "Gärdet",
      "from_central_direction": 1,
      "latitude": 59.3451607693221,
      "longitude": 18.0989717802474
    },
    {
      "siteid": 9160,
      "sitename": "Hagsätra",
      "from_central_direction": 2,
      "latitude": 59.2616540154908,
      "longitude": 18.0133647845506
    },
    {
      "siteid": 9303,
      "sitename": "Hallonbergen",
      "from_central_direction": 1,
      "latitude": 59.3743278170188,
      "longitude": 17.9691260920519
    },
    {
      "siteid": 9281,
      "sitename": "Hallunda",
      "from_central_direction": 2,
      "latitude": 59.2433285243852,
      "longitude": 17.8252597674357
    },
    {
      "siteid": 9144,
      "sitename": "Hammarbyhöjden",
      "from_central_direction": 2,
      "latitude": 59.2947468751046,
      "longitude": 18.1045842465346
    },
    {
      "siteid": 9320,
      "sitename": "Hjulsta",
      "from_central_direction": 1,
      "latitude": 59.3975010137794,
      "longitude": 17.8892901779774
    },
    {
      "siteid": 9295,
      "sitename": "Hornstull",
      "from_central_direction": 2,
      "latitude": 59.3159632980205,
      "longitude": 18.0355402102693
    },
    {
      "siteid": 9301,
      "sitename": "Husby",
      "from_central_direction": 1,
      "latitude": 59.4097176326344,
      "longitude": 17.9269066053237
    },
    {
      "siteid": 9327,
      "sitename": "Huvudsta",
      "from_central_direction": 1,
      "latitude": 59.3497132209047,
      "longitude": 17.9870070274309
    },
    {
      "siteid": 9262,
      "sitename": "Hägerstensåsen",
      "from_central_direction": 2,
      "latitude": 59.2951615223219,
      "longitude": 17.9784233065016
    },
    {
      "siteid": 9101,
      "sitename": "Hässelby gård",
      "from_central_direction": 1,
      "latitude": 59.3670448853005,
      "longitude": 17.8442877712687
    },
    {
      "siteid": 9100,
      "sitename": "Hässelby strand",
      "from_central_direction": 1,
      "latitude": 59.3617428105017,
      "longitude": 17.8324667161437
    },
    {
      "siteid": 9162,
      "sitename": "Högdalen",
      "from_central_direction": 2,
      "latitude": 59.2637694810849,
      "longitude": 18.0430377645113
    },
    {
      "siteid": 9182,
      "sitename": "Hökarängen",
      "from_central_direction": 2,
      "latitude": 59.2579307022309,
      "longitude": 18.0824977977387
    },
    {
      "siteid": 9119,
      "sitename": "Hötorget",
      "from_central_direction": 1,
      "latitude": 59.3356060415282,
      "longitude": 18.0629635851674
    },
    {
      "siteid": 9106,
      "sitename": "Islandstorget",
      "from_central_direction": 1,
      "latitude": 59.3459947012697,
      "longitude": 17.8932718445772
    },
    {
      "siteid": 9102,
      "sitename": "Johannelund",
      "from_central_direction": 1,
      "latitude": 59.3679232409668,
      "longitude": 17.8581326256469
    },
    {
      "siteid": 9222,
      "sitename": "Karlaplan",
      "from_central_direction": 1,
      "latitude": 59.3389882957986,
      "longitude": 18.0919988929416
    },
    {
      "siteid": 9302,
      "sitename": "Kista",
      "from_central_direction": 1,
      "latitude": 59.4029594411987,
      "longitude": 17.9426683336417
    },
    {
      "siteid": 9113,
      "sitename": "Kristineberg",
      "from_central_direction": 1,
      "latitude": 59.3327224102678,
      "longitude": 18.0031233049855
    },
    {
      "siteid": 9340,
      "sitename": "Kungsträdgården",
      "from_central_direction": 2,
      "latitude": 59.3307821796554,
      "longitude": 18.0728892526853
    },
    {
      "siteid": 9142,
      "sitename": "Kärrtorp",
      "from_central_direction": 2,
      "latitude": 59.2844869642383,
      "longitude": 18.1144927799517
    },
    {
      "siteid": 9294,
      "sitename": "Liljeholmen",
      "from_central_direction": 2,
      "latitude": 59.3107413850728,
      "longitude": 18.0231848932682
    },
    {
      "siteid": 9297,
      "sitename": "Mariatorget",
      "from_central_direction": 2,
      "latitude": 59.317014373907,
      "longitude": 18.0621173620111
    },
    {
      "siteid": 9284,
      "sitename": "Masmo",
      "from_central_direction": 2,
      "latitude": 59.2499160692218,
      "longitude": 17.8813985689491
    },
    {
      "siteid": 9191,
      "sitename": "Medborgarplatsen",
      "from_central_direction": 2,
      "latitude": 59.3148923778042,
      "longitude": 18.0726216304905
    },
    {
      "siteid": 9264,
      "sitename": "Midsommarkransen",
      "from_central_direction": 2,
      "latitude": 59.3018622871211,
      "longitude": 18.0119663033992
    },
    {
      "siteid": 9290,
      "sitename": "Mälarhöjden",
      "from_central_direction": 2,
      "latitude": 59.3012518260086,
      "longitude": 17.957741811607
    },
    {
      "siteid": 9200,
      "sitename": "Mörby centrum",
      "from_central_direction": 1,
      "latitude": 59.3983196270836,
      "longitude": 18.0364235120228
    },
    {
      "siteid": 9280,
      "sitename": "Norsborg",
      "from_central_direction": 2,
      "latitude": 59.2437394272553,
      "longitude": 17.8155385869142
    },
    {
      "siteid": 9304,
      "sitename": "Näckrosen",
      "from_central_direction": 1,
      "latitude": 59.3673205615557,
      "longitude": 17.9817335216068
    },
    {
      "siteid": 9117,
      "sitename": "Odenplan",
      "from_central_direction": 1,
      "latitude": 59.3427594713838,
      "longitude": 18.0486006570919
    },
    {
      "siteid": 9322,
      "sitename": "Rinkeby",
      "from_central_direction": 1,
      "latitude": 59.3881298077025,
      "longitude": 17.9280926120175
    },
    {
      "siteid": 9323,
      "sitename": "Rissne",
      "from_central_direction": 1,
      "latitude": 59.3759873132034,
      "longitude": 17.9397923648635
    },
    {
      "siteid": 9220,
      "sitename": "Ropsten",
      "from_central_direction": 1,
      "latitude": 59.3574988438994,
      "longitude": 18.1030754913324
    },
    {
      "siteid": 9104,
      "sitename": "Råcksta",
      "from_central_direction": 1,
      "latitude": 59.3545134760031,
      "longitude": 17.8816258413569
    },
    {
      "siteid": 9309,
      "sitename": "Rådhuset",
      "from_central_direction": 1,
      "latitude": 59.3298618228492,
      "longitude": 18.0450969466288
    },
    {
      "siteid": 9118,
      "sitename": "Rådmansgatan",
      "from_central_direction": 1,
      "latitude": 59.3408840007015,
      "longitude": 18.0578994257094
    },
    {
      "siteid": 9161,
      "sitename": "Rågsved",
      "from_central_direction": 2,
      "latitude": 59.2567278828953,
      "longitude": 18.0284423903572
    },
    {
      "siteid": 9186,
      "sitename": "Sandsborg",
      "from_central_direction": 2,
      "latitude": 59.2856752641236,
      "longitude": 18.0919325152121
    },
    {
      "siteid": 9116,
      "sitename": "Sankt Eriksplan",
      "from_central_direction": 1,
      "latitude": 59.3402934026792,
      "longitude": 18.0374161430336
    },
    {
      "siteid": 9190,
      "sitename": "Skanstull",
      "from_central_direction": 2,
      "latitude": 59.3084969588188,
      "longitude": 18.0758138335239
    },
    {
      "siteid": 9140,
      "sitename": "Skarpnäck",
      "from_central_direction": 2,
      "latitude": 59.267427306007,
      "longitude": 18.1335110441424
    },
    {
      "siteid": 9185,
      "sitename": "Skogskyrkogården",
      "from_central_direction": 2,
      "latitude": 59.2789670265301,
      "longitude": 18.0955186440715
    },
    {
      "siteid": 9287,
      "sitename": "Skärholmen",
      "from_central_direction": 2,
      "latitude": 59.2769904614008,
      "longitude": 17.9070656617613
    },
    {
      "siteid": 9188,
      "sitename": "Skärmarbrink",
      "from_central_direction": 2,
      "latitude": 59.2952665051917,
      "longitude": 18.0903639324155
    },
    {
      "siteid": 9192,
      "sitename": "Slussen",
      "from_central_direction": 2,
      "latitude": 59.3195952317958,
      "longitude": 18.071740133708
    },
    {
      "siteid": 9166,
      "sitename": "Sockenplan",
      "from_central_direction": 2,
      "latitude": 59.283609704603,
      "longitude": 18.0708746681109
    },
    {
      "siteid": 9305,
      "sitename": "Solna centrum",
      "from_central_direction": 1,
      "latitude": 59.3597729577538,
      "longitude": 17.9981001818312
    },
    {
      "siteid": 9326,
      "sitename": "Solna strand",
      "from_central_direction": 1,
      "latitude": 59.3543425137782,
      "longitude": 17.9737982007029
    },
    {
      "siteid": 9205,
      "sitename": "Stadion",
      "from_central_direction": 1,
      "latitude": 59.3408076157474,
      "longitude": 18.0819427479138
    },
    {
      "siteid": 9307,
      "sitename": "Stadshagen",
      "from_central_direction": 1,
      "latitude": 59.337477366128,
      "longitude": 18.015593812489
    },
    {
      "siteid": 9111,
      "sitename": "Stora mossen",
      "from_central_direction": 1,
      "latitude": 59.3346646732361,
      "longitude": 17.9653558320959
    },
    {
      "siteid": 9164,
      "sitename": "Stureby",
      "from_central_direction": 2,
      "latitude": 59.2746253315278,
      "longitude": 18.0555927213696
    },
    {
      "siteid": 9165,
      "sitename": "Svedmyra",
      "from_central_direction": 2,
      "latitude": 59.2780209787806,
      "longitude": 18.0679591281672
    },
    {
      "siteid": 9288,
      "sitename": "Sätra",
      "from_central_direction": 2,
      "latitude": 59.2850604023792,
      "longitude": 17.9210937554179
    },
    {
      "siteid": 9184,
      "sitename": "Tallkrogen",
      "from_central_direction": 2,
      "latitude": 59.2712662580554,
      "longitude": 18.0855632676107
    },
    {
      "siteid": 9204,
      "sitename": "Tekniska högskolan",
      "from_central_direction": 1,
      "latitude": 59.3465411447573,
      "longitude": 18.0693156587543
    },
    {
      "siteid": 9263,
      "sitename": "Telefonplan",
      "from_central_direction": 2,
      "latitude": 59.2982482765907,
      "longitude": 17.9973180997882
    },
    {
      "siteid": 9321,
      "sitename": "Tensta",
      "from_central_direction": 1,
      "latitude": 59.3942868176953,
      "longitude": 17.9027198957965
    },
    {
      "siteid": 9114,
      "sitename": "Thorildsplan",
      "from_central_direction": 1,
      "latitude": 59.3314927232727,
      "longitude": 18.0158378154947
    },
    {
      "siteid": 9203,
      "sitename": "Universitetet",
      "from_central_direction": 1,
      "latitude": 59.365361017987,
      "longitude": 18.0548947967027
    },
    {
      "siteid": 9286,
      "sitename": "Vårberg",
      "from_central_direction": 2,
      "latitude": 59.2759430857457,
      "longitude": 17.8901054830793
    },
    {
      "siteid": 9285,
      "sitename": "Vårby gård",
      "from_central_direction": 2,
      "latitude": 59.2643380474581,
      "longitude": 17.8847136838613
    },
    {
      "siteid": 9103,
      "sitename": "Vällingby",
      "from_central_direction": 1,
      "latitude": 59.3632773225026,
      "longitude": 17.8720117901697
    },
    {
      "siteid": 9261,
      "sitename": "Västertorp",
      "from_central_direction": 2,
      "latitude": 59.2913516203392,
      "longitude": 17.9667006809331
    },
    {
      "siteid": 9306,
      "sitename": "Västra skogen",
      "from_central_direction": 1,
      "latitude": 59.3480375378972,
      "longitude": 18.0033743796139
    },
    {
      "siteid": 9296,
      "sitename": "Zinkensdamm",
      "from_central_direction": 2,
      "latitude": 59.3177049160947,
      "longitude": 18.0496904097639
    },
    {
      "siteid": 9108,
      "sitename": "Åkeshov",
      "from_central_direction": 1,
      "latitude": 59.3417679846642,
      "longitude": 17.9270450567812
    },
    {
      "siteid": 9107,
      "sitename": "Ängbyplan",
      "from_central_direction": 1,
      "latitude": 59.3419565156307,
      "longitude": 17.9070871163572
    },
    {
      "siteid": 9292,
      "sitename": "Örnsberg",
      "from_central_direction": 2,
      "latitude": 59.3054346744698,
      "longitude": 17.9891406576894
    },
    {
      "siteid": 9206,
      "sitename": "Östermalmstorg",
      "from_central_direction": 1,
      "latitude": 59.3349688288931,
      "longitude": 18.0763846822514
    }
  ],
  "train_stations": [
    {
      "siteid": 9500,
      "sitename": "Märsta",
      "from_central_direction": 2,
      "latitude": 59.6234435745398,
      "longitude": 17.8608697599580
    },
    {
      "siteid": 9501,
      "sitename": "Rosersberg",
      "from_central_direction": 2,
      "latitude": 59.5830381899391,
      "longitude": 17.8802340414674
    },
    {
      "siteid": 9502,
      "sitename": "Upplands Väsby",
      "from_central_direction": 2,
      "latitude": 59.5215479917057,
      "longitude": 17.8994827972724
    },
    {
      "siteid": 9503,
      "sitename": "Rotebro",
      "from_central_direction": 2,
      "latitude": 59.4765698922157,
      "longitude": 17.9140828578122
    },
    {
      "siteid": 9504,
      "sitename": "Norrviken",
      "from_central_direction": 2,
      "latitude": 59.4580196491360,
      "longitude": 17.9245695307683
    },
    {
      "siteid": 9505,
      "sitename": "Häggvik",
      "from_central_direction": 2,
      "latitude": 59.4435578352971,
      "longitude": 17.9331684894166
    },
    {
      "siteid": 9506,
      "sitename": "Sollentuna",
      "from_central_direction": 2,
      "latitude": 59.4280188335456,
      "longitude": 17.9488300075857
    },
    {
      "siteid": 9507,
      "sitename": "Helenelund",
      "from_central_direction": 2,
      "latitude": 59.4094211371147,
      "longitude": 17.9619929161480
    },
    {
      "siteid": 9508,
      "sitename": "Ulriksdal",
      "from_central_direction": 2,
      "latitude": 59.3798912886667,
      "longitude": 18.0010706232564
    },
    {
      "siteid": 9509,
      "sitename": "Solna (pendeltåg stn)",
      "from_central_direction": 2,
      "latitude": 59.3665147337155,
      "longitude": 18.0095374234150
    },
    {
      "siteid": 9510,
      "sitename": "Karlberg",
      "from_central_direction": 2,
      "latitude": 59.3395583708463,
      "longitude": 18.0294576555531
    },
    {
      "siteid": 9530,
      "sitename": "Stockholms Södra",
      "from_central_direction": 1,
      "latitude": 59.3135317369292,
      "longitude": 18.0620271082888
    },
    {
      "siteid": 9531,
      "sitename": "Årstaberg",
      "from_central_direction": 1,
      "latitude": 59.2993431403456,
      "longitude": 18.0275698409024
    },
    {
      "siteid": 9529,
      "sitename": "Älvsjö",
      "from_central_direction": 1,
      "latitude": 59.2785257456820,
      "longitude": 18.0102632742484
    },
    {
      "siteid": 9528,
      "sitename": "Stuvsta",
      "from_central_direction": 1,
      "latitude": 59.2532754353359,
      "longitude": 17.9958502364248
    },
    {
      "siteid": 9527,
      "sitename": "Huddinge",
      "from_central_direction": 1,
      "latitude": 59.2374139676809,
      "longitude": 17.9805147945528
    },
    {
      "siteid": 9526,
      "sitename": "Flemingsberg",
      "from_central_direction": 1,
      "latitude": 59.2190463433643,
      "longitude": 17.9472043350477
    },
    {
      "siteid": 9525,
      "sitename": "Tullinge",
      "from_central_direction": 1,
      "latitude": 59.2054130250978,
      "longitude": 17.9038219185117
    },
    {
      "siteid": 9524,
      "sitename": "Tumba",
      "from_central_direction": 1,
      "latitude": 59.1996766394750,
      "longitude": 17.8364240103246
    },
    {
      "siteid": 9523,
      "sitename": "Rönninge",
      "from_central_direction": 1,
      "latitude": 59.1935949553727,
      "longitude": 17.7514584179394
    },
    {
      "siteid": 9522,
      "sitename": "Östertälje",
      "from_central_direction": 1,
      "latitude": 59.1837857295629,
      "longitude": 17.6614585012139
    },
    {
      "siteid": 9521,
      "sitename": "Södertälje hamn",
      "from_central_direction": 1,
      "latitude": 59.1789721395906,
      "longitude": 17.6463628503415
    },
    {
      "siteid": 9520,
      "sitename": "Södertälje centrum",
      "from_central_direction": 1,
      "latitude": 59.1921354248931,
      "longitude": 17.6272251692751
    },
    {
      "siteid": 9710,
      "sitename": "Bålsta",
      "from_central_direction": 2,
      "latitude": 59.5674728521826,
      "longitude": 17.5363217562194
    },
    {
      "siteid": 9711,
      "sitename": "Bro",
      "from_central_direction": 2,
      "latitude": 59.5119100986987,
      "longitude": 17.6343994075900
    },
    {
      "siteid": 9700,
      "sitename": "Kungsängen",
      "from_central_direction": 2,
      "latitude": 59.4784080170899,
      "longitude": 17.7539584875344
    },
    {
      "siteid": 9701,
      "sitename": "Kallhäll",
      "from_central_direction": 2,
      "latitude": 59.4518855926425,
      "longitude": 17.8079309497902
    },
    {
      "siteid": 9702,
      "sitename": "Jakobsberg",
      "from_central_direction": 2,
      "latitude": 59.4230209230794,
      "longitude": 17.8333442109861
    },
    {
      "siteid": 9703,
      "sitename": "Barkarby",
      "from_central_direction": 2,
      "latitude": 59.4035638036992,
      "longitude": 17.8688290027807
    },
    {
      "siteid": 9704,
      "sitename": "Spånga",
      "from_central_direction": 2,
      "latitude": 59.3833779943182,
      "longitude": 17.8987373955987
    },
    {
      "siteid": 9732,
      "sitename": "Trångsund",
      "from_central_direction": 1,
      "latitude": 59.2275709467502,
      "longitude": 18.1311280156970
    },
    {
      "siteid": 9731,
      "sitename": "Skogås",
      "from_central_direction": 1,
      "latitude": 59.2184271501769,
      "longitude": 18.1542234178621
    },
    {
      "siteid": 9730,
      "sitename": "Handen",
      "from_central_direction": 1,
      "latitude": 59.1682306798514,
      "longitude": 18.1350734848834
    },
    {
      "siteid": 9729,
      "sitename": "Jordbro",
      "from_central_direction": 1,
      "latitude": 59.1422989931564,
      "longitude": 18.1263552539213
    },
    {
      "siteid": 9728,
      "sitename": "Västerhaninge",
      "from_central_direction": 1,
      "latitude": 59.1229326417136,
      "longitude": 18.1028962430239
    },
    {
      "siteid": 9727,
      "sitename": "Krigslida",
      "from_central_direction": 1,
      "latitude": 59.1096005232527,
      "longitude": 18.0674143798064
    },
    {
      "siteid": 9726,
      "sitename": "Tungelsta",
      "from_central_direction": 1,
      "latitude": 59.1025209303707,
      "longitude": 18.0453363840866
    },
    {
      "siteid": 9725,
      "sitename": "Hemfosa",
      "from_central_direction": 1,
      "latitude": 59.0689014109922,
      "longitude": 17.9765618666803
    },
    {
      "siteid": 9724,
      "sitename": "Segersäng",
      "from_central_direction": 1,
      "latitude": 59.0281505109643,
      "longitude": 17.9261090538631
    },
    {
      "siteid": 9723,
      "sitename": "Ösmo",
      "from_central_direction": 1,
      "latitude": 58.9845495201914,
      "longitude": 17.9026228274175
    },
    {
      "siteid": 9722,
      "sitename": "Nynäsgård",
      "from_central_direction": 1,
      "latitude": 58.9134493718619,
      "longitude": 17.9425125633660
    },
    {
      "siteid": 9721,
      "sitename": "Gröndalsviken",
      "from_central_direction": 1,
      "latitude": 58.8989243262914,
      "longitude": 17.9318806950938
    },
    {
      "siteid": 9720,
      "sitename": "Nynäshamn",
      "from_central_direction": 1,
      "latitude": 58.9016603614973,
      "longitude": 17.9521630219049
    }
  ],
  "bus_stations": [
    {
      "siteid": 3610,
      "sitename": "Voltavägen",
      "latitude": 59.3470696993968,
      "longitude": 17.9672687763761
    },
    {
      "siteid": 3614,
      "sitename": "Norra Ulvsunda",
      "latitude": 59.3507394700690,
      "longitude": 17.9626886392460
    }
  ]
}
